City_ID,City,Lat,Lng,Max Temp,Humidity,Cloudiness,Wind Speed,Country,Date
0,teya,60.3778,92.6267,11.52,60,11,1.82,RU,1685372617
1,vaini,-21.2,-175.2,25.09,88,20,4.63,TO,1685372617
2,clyde river,70.4692,-68.5914,-2.87,93,100,3.09,CA,1685372617
3,bajil,15.0584,43.2851,31.43,47,100,5.09,YE,1685372619
4,uvinza,-5.1036,30.3911,24.06,63,98,1.47,TZ,1685372619
5,rikitea,-23.1203,-134.9692,22.82,63,100,5.57,PF,1685372620
6,zhezkazgan,47.8043,67.7144,24.99,20,0,2.0,KZ,1685372620
7,hambantota,6.1241,81.1185,25.19,100,75,2.06,LK,1685372621
8,poptun,16.3311,-89.4169,30.19,46,2,1.32,GT,1685372621
9,thornbury,52.2333,-2.55,18.15,56,99,5.54,GB,1685372563
10,port lincoln,-34.7333,135.8667,15.02,92,78,3.94,AU,1685372623
11,thompson,55.7435,-97.8558,15.09,100,100,2.57,CA,1685372328
12,saint-philippe,-21.3585,55.7679,23.77,78,48,4.54,RE,1685372524
13,ushuaia,-54.8,-68.3,5.81,93,0,2.06,AR,1685372127
14,mataura,-46.1927,168.8643,8.84,96,93,0.89,NZ,1685372626
15,broken hill,-31.95,141.4333,14.2,73,91,3.56,AU,1685372627
16,husavik,66.0449,-17.3389,12.51,67,97,2.79,IS,1685372627
17,hermanus,-34.4187,19.2345,15.45,87,100,10.32,ZA,1685372628
18,atuona,-9.8,-139.0333,27.0,70,17,8.73,PF,1685372476
19,gornopravdinsk,60.05,69.9,19.05,83,79,4.26,RU,1685372629
20,punta arenas,-53.15,-70.9167,7.84,84,40,5.14,CL,1685372630
21,salo,45.6086,10.531,27.4,55,3,1.39,IT,1685372630
22,cape town,-33.9258,18.4232,18.23,70,75,9.26,ZA,1685372100
23,kapaa,22.0752,-159.319,21.17,89,23,3.38,US,1685372631
24,mucuri,-18.0864,-39.5508,27.24,60,32,1.9,BR,1685372631
25,tasiilaq,65.6145,-37.6368,1.09,99,100,1.59,GL,1685372483
26,kailua,21.4022,-157.7394,23.05,82,34,1.34,US,1685372632
27,ponta delgada,37.7333,-25.6667,20.4,73,20,3.6,PT,1685372524
28,yellowknife,62.456,-114.3525,10.29,76,20,4.63,CA,1685372632
29,dargaville,-35.9333,173.8833,13.56,96,88,1.49,NZ,1685372632
30,port elizabeth,-33.918,25.5701,17.83,94,100,9.26,ZA,1685372633
31,hamilton,39.1834,-84.5333,25.29,52,40,3.09,US,1685372058
32,busselton,-33.65,115.3333,19.48,70,100,7.28,AU,1685372636
33,sandy bay,-42.913,147.3532,9.94,66,40,6.17,AU,1685372636
34,navalmoral de la mata,39.8916,-5.5406,21.51,58,77,3.45,ES,1685372637
35,castro,-24.7911,-50.0119,14.71,86,99,4.07,BR,1685372337
36,matthews,35.1168,-80.7237,18.84,94,100,3.09,US,1685372637
37,butaritari,3.0707,172.7902,28.24,78,85,4.31,KI,1685372563
38,bandarbeyla,9.4942,50.8122,28.9,73,12,9.97,SO,1685372637
39,puerto ayora,-0.7393,-90.3518,27.98,100,48,1.79,EC,1685372638
40,victoria,22.2855,114.1577,30.21,78,35,4.92,HK,1685372402
41,namibe,-15.1961,12.1522,21.4,53,1,6.87,AO,1685372638
42,west bay,19.3667,-81.4167,31.11,74,20,4.12,KY,1685372638
43,bluff,-46.6,168.3333,10.91,87,81,3.55,NZ,1685372312
44,mount gambier,-37.8333,140.7667,13.3,94,100,3.29,AU,1685372639
45,mar del plata,-38.0023,-57.5575,12.19,66,0,4.63,AR,1685372498
46,polyarnyy,69.1989,33.4478,7.75,84,100,5.35,RU,1685372639
47,dongkan,33.9997,119.8308,17.24,96,31,2.64,CN,1685372640
48,nikolskoye,59.7035,30.7861,15.94,37,100,3.83,RU,1685372640
49,suozhen,36.9539,118.1047,19.76,64,100,1.54,CN,1685372641
50,qaanaaq,77.484,-69.3632,-4.8,68,67,4.12,GL,1685372641
51,east london,-33.0153,27.9116,16.52,94,100,2.06,ZA,1685372433
52,luwuk,-0.9516,122.7875,25.28,86,8,1.77,ID,1685372643
53,ardakan,32.31,54.0175,35.94,10,3,6.38,IR,1685372644
54,saint augustine,29.8947,-81.3145,27.84,60,0,5.66,US,1685372645
55,lagoa,39.05,-27.9833,17.13,74,0,1.53,PT,1685372603
56,hobart,-42.8794,147.3294,9.92,66,40,6.17,AU,1685372559
57,dakar,14.6937,-17.4441,35.49,61,0,8.23,SN,1685372461
58,rudnyy,52.9594,63.1206,29.13,29,18,3.9,KZ,1685372650
59,acapulco,16.8634,-99.8901,31.12,59,0,0.86,MX,1685372422
60,ponta do sol,32.6667,-17.1,24.35,62,1,2.95,PT,1685372651
61,port-cartier,50.0334,-66.8654,10.12,47,6,2.91,CA,1685372652
62,banff,51.1762,-115.5698,13.76,62,7,3.09,CA,1685372652
63,jumla,29.2747,82.1838,13.73,87,33,0.59,NP,1685372653
64,mahebourg,-20.4081,57.7,25.16,73,40,3.6,MU,1685372564
65,moyale,3.5167,39.0584,22.16,58,43,2.55,KE,1685372655
66,gweta,-20.1833,25.2333,28.2,15,4,4.03,BW,1685372656
67,terrace bay,48.7834,-87.1,12.15,54,66,2.17,CA,1685372657
68,hithadhoo,-0.6,73.0833,28.51,74,85,3.33,MV,1685372657
69,tuktoyaktuk,69.4541,-133.0374,6.0,75,20,5.66,CA,1685372659
70,athabasca,54.7169,-113.2854,15.23,46,8,2.16,CA,1685372441
71,ribeira grande,38.5167,-28.7,19.87,82,40,5.14,PT,1685372661
72,barrow,71.2906,-156.7887,0.01,93,100,6.69,US,1685372662
73,port alfred,-33.5906,26.891,15.66,97,100,1.79,ZA,1685372663
74,sitka,57.0531,-135.33,6.94,76,100,4.63,US,1685372665
75,takoradi,4.8845,-1.7554,28.37,73,100,2.95,GH,1685372666
76,grindavik,63.8424,-22.4338,10.97,93,100,12.35,IS,1685372667
77,sistranda,63.7256,8.834,9.98,84,57,8.12,NO,1685372667
78,bethel,41.3712,-73.414,25.23,46,0,5.14,US,1685372669
79,celestun,20.8667,-90.4,28.47,64,100,1.85,MX,1685372669
80,jamestown,42.097,-79.2353,21.8,43,0,2.57,US,1685372511
81,karaton,-6.3424,106.1045,24.1,90,86,0.75,ID,1685372670
82,dunmore town,25.5,-76.65,27.43,76,94,3.56,BS,1685372671
83,albany,42.6001,-73.9662,26.0,40,1,0.89,US,1685371913
84,liku,-0.7275,119.8922,24.93,93,36,0.85,ID,1685372673
85,ilulissat,69.2167,-51.1,-0.99,51,40,2.57,GL,1685372674
86,nemuro,43.3236,145.575,6.42,94,100,3.45,JP,1685372473
87,ngunguru,-35.6167,174.5,15.0,91,68,2.54,NZ,1685372674
88,okhotsk,59.3833,143.3,10.06,55,51,4.13,RU,1685372675
89,adrar,20.5022,-10.0711,36.33,16,35,7.5,MR,1685372676
90,san carlos de bariloche,-41.1456,-71.3082,8.47,87,40,2.06,AR,1685372677
91,yulara,-25.2406,130.9889,11.52,44,12,4.35,AU,1685372677
92,mareeba,-17.0,145.4333,13.4,80,79,0.76,AU,1685372677
93,chuy,-33.6971,-53.4616,14.37,52,15,1.05,UY,1685372547
94,new norfolk,-42.7826,147.0587,9.72,65,100,1.65,AU,1685372679
95,vestmanna,62.1564,-7.1664,9.51,93,100,7.72,FO,1685372680
96,toktogul,41.8708,72.9402,17.97,58,98,1.88,KG,1685372681
97,banda aceh,5.5577,95.3222,27.5,77,100,5.74,ID,1685372682
98,key biscayne,25.6937,-80.1628,31.12,67,75,2.57,US,1685372683
99,buta,2.7858,24.73,24.54,80,96,0.71,CD,1685372683
100,norman wells,65.282,-126.8329,10.02,71,75,4.63,CA,1685372684
101,bareli,28.35,79.4167,31.3,38,54,5.38,IN,1685372653
102,bereda,43.2686,-7.5406,25.79,60,53,3.76,ES,1685372684
103,marsh harbour,26.5412,-77.0636,26.64,75,100,2.76,BS,1685372404
104,kutum,14.2,24.6667,34.78,18,2,2.09,SD,1685372686
105,uglekamensk,43.2172,133.2303,7.92,89,2,1.53,RU,1685372687
106,hilo,19.7297,-155.09,22.38,92,100,1.54,US,1685372687
107,rajkot,22.3,70.7833,31.96,54,4,8.76,IN,1685372554
108,san cristobal,7.7669,-72.225,24.1,57,44,2.1,VE,1685372580
109,bilma,18.6853,12.9164,39.49,8,1,1.3,NE,1685372689
110,progreso,21.2833,-89.6667,28.39,63,100,2.64,MX,1685372174
111,nyurba,63.2842,118.3319,7.94,81,44,2.24,RU,1685372689
112,moerai,-22.4333,-151.3333,24.66,79,80,5.99,PF,1685372690
113,emerald,-23.5333,148.1667,10.19,51,0,5.79,AU,1685372356
114,coquimbo,-29.9533,-71.3436,14.85,82,0,1.54,CL,1685372212
115,upernavik,72.7868,-56.1549,-3.93,55,85,2.12,GL,1685372479
116,bredasdorp,-34.5322,20.0403,15.45,86,100,10.23,ZA,1685372691
117,kiel,54.3213,10.1349,19.07,42,0,3.09,DE,1685372611
118,dikson,73.5069,80.5464,-1.14,87,13,2.25,RU,1685372513
119,saint-leu,-21.15,55.2833,23.48,94,29,2.47,RE,1685372692
120,shangrao,28.4532,117.9686,27.72,79,88,0.74,CN,1685372692
121,kenai,60.5544,-151.2583,4.52,99,75,0.0,US,1685372692
122,belmonte,-15.8631,-38.8828,27.6,63,32,1.85,BR,1685372692
123,koumra,8.9126,17.5539,28.48,53,100,2.24,TD,1685372693
124,tadine,-21.55,167.8833,21.89,69,95,5.85,NC,1685372693
125,lithakia,37.7167,20.8333,24.65,64,75,2.57,GR,1685372693
126,bambous virieux,-20.3428,57.7575,25.14,73,40,3.6,MU,1685372693
127,leningradskiy,69.3833,178.4167,-0.67,96,100,12.71,RU,1685372694
128,cherskiy,68.75,161.3,1.45,78,100,3.79,RU,1685372694
129,georgetown,5.4112,100.3354,28.97,83,40,1.54,MY,1685372442
130,constitucion,-35.3333,-72.4167,12.51,55,24,3.13,CL,1685372441
131,berdigestyakh,62.0989,126.6992,8.0,72,62,0.43,RU,1685372695
132,miranda,3.2499,-76.2281,22.07,69,45,2.03,CO,1685372695
133,saint george,37.1041,-113.5841,22.36,25,0,2.06,US,1685372151
134,kahului,20.8947,-156.47,23.8,83,75,2.57,US,1685372696
135,komsomolskiy,40.4272,71.7189,28.4,18,0,1.03,UZ,1685372696
136,sur,22.5667,59.5289,34.31,48,0,4.59,OM,1685372697
137,qrendi,35.8347,14.4583,22.84,56,0,3.09,MT,1685372697
138,lebu,-37.6167,-73.65,10.1,60,62,2.41,CL,1685372601
139,kruisfontein,-34.0033,24.7314,16.6,96,100,7.56,ZA,1685372697
140,kodiak,57.79,-152.4072,6.73,70,100,3.6,US,1685372697
141,nobeoka,32.5833,131.6667,22.44,93,72,0.93,JP,1685372698
142,san patricio,28.017,-97.5169,28.84,67,100,1.58,US,1685372698
143,sao filipe,14.8961,-24.4956,25.13,69,100,3.12,CV,1685372698
144,arraial do cabo,-22.9661,-42.0278,21.98,83,75,2.57,BR,1685372557
145,altay,47.8667,88.1167,8.85,64,95,2.13,CN,1685372699
146,mozarlandia,-14.7447,-50.5706,33.2,31,77,1.35,BR,1685372699
147,knysna,-34.0363,23.0471,16.85,90,96,7.08,ZA,1685372699
148,aksha,50.2814,113.2867,10.12,32,0,0.96,RU,1685372700
149,vao,-22.6667,167.4833,21.88,66,100,5.18,NC,1685372700
150,alice springs,-23.7,133.8833,6.75,70,1,4.02,AU,1685372412
151,geraldton,-28.7667,114.6,18.23,48,100,5.14,AU,1685372486
152,balabac,7.9868,117.0645,28.82,78,85,4.69,PH,1685372706
153,porto torres,40.835,8.3972,24.1,66,83,2.41,IT,1685372706
154,tabuk,17.4189,121.4443,24.6,86,100,1.0,PH,1685372633
155,palmas,-10.2128,-48.3603,32.93,46,20,3.6,BR,1685372709
156,kinsale,51.7075,-8.5306,17.65,63,40,5.14,IE,1685372710
157,anadyr,64.75,177.4833,1.28,74,0,10.73,RU,1685372710
158,solnechnyy,50.7214,136.6319,4.48,85,99,2.31,RU,1685372711
159,lavrentiya,65.5833,-171.0,-0.83,98,54,2.64,RU,1685372712
160,floro,61.5996,5.0328,10.04,100,75,3.6,NO,1685372604
161,avarua,-21.2078,-159.775,23.03,88,100,2.57,CK,1685372713
162,taoudenni,22.6783,-3.9836,39.12,13,36,7.2,ML,1685372714
163,bhag,29.0415,67.8239,29.56,37,53,8.19,PK,1685372380
164,parana,-31.732,-60.5238,14.76,62,100,3.5,AR,1685372715
165,pitimbu,-7.4706,-34.8086,26.33,80,100,4.61,BR,1685372716
166,forbes,-33.3833,148.0167,10.76,74,96,1.59,AU,1685372716
167,pamplona,42.8169,-1.6432,16.95,72,40,3.6,ES,1685372652
168,hasaki,35.7333,140.8333,20.12,98,100,1.77,JP,1685372600
169,kanniyakumari,8.0833,77.5667,27.87,76,100,4.18,IN,1685372718
170,khatanga,71.9667,102.5,3.84,75,99,5.66,RU,1685372719
171,ahipara,-35.1667,173.1667,13.79,94,91,1.31,NZ,1685372655
172,maracaibo,10.6317,-71.6406,30.78,66,99,1.21,VE,1685372520
173,forest hill,32.6721,-97.2692,28.16,62,0,4.63,US,1685372721
174,male,4.1748,73.5089,28.97,89,75,4.63,MV,1685372491
175,djenne,13.9061,-4.5533,42.57,12,100,4.57,ML,1685372724
176,kaitangata,-46.2817,169.8464,12.74,72,92,1.33,NZ,1685372440
177,eskisehir,39.7767,30.5206,18.95,68,75,3.6,TR,1685372726
178,pong,19.1493,100.2752,27.61,71,40,1.16,TH,1685372729
179,pocao de pedras,-4.6667,-44.85,31.08,58,49,2.11,BR,1685372729
180,katobu,-4.9408,122.5276,24.27,85,3,2.62,ID,1685372731
181,sosnovka,56.255,51.2842,16.59,63,31,4.39,RU,1685372731
182,santa clara,22.4,-79.9667,30.8,53,96,0.88,CU,1685372563
183,berlevag,70.8578,29.0864,8.0,87,100,3.09,NO,1685372732
184,beatrice,40.2681,-96.747,24.54,64,0,3.6,US,1685372502
185,tukrah,32.5341,20.5791,22.17,61,66,4.01,LY,1685372736
186,pechenga,69.5259,31.1703,7.3,77,100,6.2,RU,1685372736
187,baykit,61.67,96.37,11.09,65,66,2.27,RU,1685372737
188,nanortalik,60.1432,-45.2371,2.53,86,35,2.73,GL,1685372738
189,sulangan,11.1373,123.7228,29.28,75,100,8.3,PH,1685372738
190,beira,-19.8436,34.8389,26.05,73,75,4.47,MZ,1685372739
191,seminole,28.7086,-81.2081,28.56,60,0,2.57,US,1685372681
192,mizdah,31.4451,12.9801,32.83,15,54,10.25,LY,1685372740
193,bulancak,40.9372,38.2291,19.9,83,75,5.14,TR,1685372741
194,clyde,41.3042,-82.9752,25.16,46,8,4.85,US,1685372742
195,nome,64.5011,-165.4064,0.09,100,100,4.63,US,1685372743
196,lasa,46.6166,10.7002,20.38,64,72,1.2,IT,1685372744
197,ailigandi,9.2333,-78.0167,26.11,89,100,1.77,PA,1685372745
198,faanui,-16.4833,-151.75,26.93,80,41,5.01,PF,1685372745
199,dolinsk,47.35,142.8,4.84,86,49,1.92,RU,1685372746
200,saskylakh,71.9167,114.0833,5.46,91,5,7.63,RU,1685372746
201,ranong,9.9658,98.6348,26.51,85,100,3.17,TH,1685372747
202,yashkul,46.1711,45.3435,30.89,31,100,2.4,RU,1685372747
203,tambopata,-12.7333,-69.1833,19.94,94,100,1.54,PE,1685372748
204,codrington,-38.2667,141.9667,12.44,89,100,5.32,AU,1685372749
205,port hedland,-20.3167,118.5667,15.03,67,82,3.09,AU,1685372749
206,antofagasta,-23.65,-70.4,19.6,63,1,2.52,CL,1685372749
207,northam,51.0333,-4.2167,19.03,67,87,6.79,GB,1685372751
208,zhanaozen,43.3,52.8,33.34,21,100,3.41,KZ,1685372751
209,mlowo,-9.0,32.9833,18.83,74,81,2.33,TZ,1685372752
210,belaya glina,46.07,40.86,17.51,91,100,2.46,RU,1685372752
211,carnarvon,-24.8667,113.6333,22.65,65,100,4.28,AU,1685372752
212,wanaka,-44.7,169.15,10.62,73,42,1.34,NZ,1685372752
213,alta floresta,-9.8756,-56.0861,33.9,52,0,3.6,BR,1685372456
214,namikupa,-10.8333,39.6,25.22,62,29,3.57,TZ,1685372753
215,pangnirtung,66.1451,-65.7125,-1.0,80,75,2.57,CA,1685372753
216,santa cruz de la palma,28.6835,-17.7642,24.08,60,40,3.09,ES,1685372753
217,tommot,58.9564,126.2925,7.17,72,100,0.82,RU,1685372754
218,imbituba,-28.24,-48.6703,18.81,57,54,1.81,BR,1685372463
219,haines junction,60.7522,-137.5108,2.97,70,100,1.03,CA,1685372755
220,lowestoft,52.4752,1.7516,15.75,65,100,8.2,GB,1685372755
221,ilhabela,-23.7781,-45.3581,20.25,85,100,3.39,BR,1685372503
222,vila velha,-20.3297,-40.2925,25.97,78,0,5.36,BR,1685372525
223,comodoro rivadavia,-45.8667,-67.5,9.92,37,0,1.54,AR,1685372633
224,harper,4.375,-7.7169,28.01,79,66,3.83,LR,1685372756
225,airai,-8.9266,125.4092,12.44,91,88,1.51,TL,1685372756
226,kushiro,42.975,144.3747,8.44,96,100,2.66,JP,1685372521
227,alofi,-19.0595,-169.9187,25.85,83,26,9.38,NU,1685372757
228,bengkulu,-3.8004,102.2655,24.85,90,95,1.74,ID,1685372757
229,campos altos,-19.6961,-46.1714,22.17,59,96,1.14,BR,1685372757
230,vila franca do campo,37.7167,-25.4333,20.23,73,24,3.67,PT,1685372757
231,zenzeli,45.9241,47.0474,28.42,37,100,6.48,RU,1685372758
232,saint-joseph,-21.3667,55.6167,23.21,77,36,4.72,RE,1685372758
233,klaksvik,62.2266,-6.589,10.51,87,86,7.42,FO,1685372758
234,tuatapere,-46.1333,167.6833,9.08,93,45,2.45,NZ,1685372758
235,rabak,13.1809,32.74,33.98,32,82,4.0,SD,1685372759
236,flinders,-34.5833,150.8552,14.54,64,88,3.13,AU,1685372759
237,tual,-5.6667,132.75,27.35,81,100,10.1,ID,1685372759
238,winslow,35.0242,-110.6974,17.1,23,0,3.6,US,1685372503
239,autazes,-3.5797,-59.1306,33.09,54,58,1.44,BR,1685372760
240,nouadhibou,20.931,-17.0347,28.99,37,67,9.77,MR,1685372760
241,touros,-5.1989,-35.4608,28.6,73,44,5.08,BR,1685372761
242,ballina,-28.8667,153.5667,9.32,69,0,2.87,AU,1685372761
243,marzuq,14.4,46.4667,29.47,47,4,6.79,YE,1685372761
244,soyo,-6.1349,12.3689,26.26,72,25,5.18,AO,1685372762
245,aloleng,16.1307,119.7824,28.95,76,100,7.3,PH,1685372762
246,mosquera,4.7059,-74.2302,18.05,68,40,1.54,CO,1685372771
247,yarmouth,41.7057,-70.2286,19.45,55,0,10.73,US,1685372773
248,pindiga,9.9833,10.9333,32.61,29,100,1.91,NG,1685372774
249,storforshei,66.4043,14.5233,4.81,86,75,3.09,NO,1685372774
250,puqi,29.7167,113.8833,25.42,94,38,2.73,CN,1685372775
251,lawrence,38.9717,-95.2353,26.23,57,100,2.57,US,1685372631
252,katherine,-14.4667,132.2667,11.18,66,57,2.06,AU,1685372784
253,fairbanks,64.8378,-147.7164,9.22,95,100,5.66,US,1685372733
254,fortuna,40.5982,-124.1573,11.48,97,100,1.54,US,1685372370
255,quang ngai,15.1167,108.8,25.97,90,24,1.19,VN,1685372785
256,porto santo,33.072,-16.3415,22.21,64,20,4.63,PT,1685372786
257,panguna,-6.3164,155.4848,20.25,97,97,0.59,PG,1685372786
258,cidreira,-30.1811,-50.2056,18.17,58,4,2.42,BR,1685372689
259,rognan,67.0953,15.3878,5.31,88,99,1.84,NO,1685372787
260,saint-denis,48.9167,2.3333,25.84,51,0,8.23,FR,1685372788
261,mirnyy,62.5353,113.9611,11.8,54,99,0.89,RU,1685372789
262,marawi,7.9986,124.2928,21.47,91,89,2.51,PH,1685372791
263,torbay,47.6666,-52.7314,8.82,77,75,8.75,CA,1685372601
264,kavaratti,10.5669,72.642,30.41,71,55,3.76,IN,1685372793
265,katsuura,35.1333,140.3,20.01,97,100,3.46,JP,1685372591
266,cockburn town,21.4612,-71.1419,27.14,82,98,6.71,TC,1685372525
267,riyadh,24.6877,46.7219,37.08,19,100,1.74,SA,1685372794
268,avera,33.194,-82.5271,24.39,56,4,2.8,US,1685372795
269,qaqortoq,60.7167,-46.0333,3.05,82,45,6.17,GL,1685372796
270,codajas,-3.8367,-62.0569,32.8,54,55,1.47,BR,1685372763
271,luau,-10.7073,22.2247,27.94,30,98,1.32,AO,1685372797
272,ust-kut,56.7938,105.7672,8.88,91,68,1.84,RU,1685372798
273,arawa,-6.2132,155.5367,25.01,92,98,0.72,PG,1685372762
274,karratha,-20.7377,116.8463,20.51,55,100,2.72,AU,1685372801
275,lyngdal,58.1376,7.07,15.5,72,94,9.36,NO,1685372802
276,khurba,50.4072,136.8819,5.49,82,96,1.84,RU,1685372802
277,mocorito,25.4833,-107.9167,25.12,38,2,1.07,MX,1685372802
278,yablonovo,50.8523,37.3574,18.37,64,25,3.73,RU,1685372803
279,cabo san lucas,22.8909,-109.9124,26.7,59,0,4.46,MX,1685372072
280,kavieng,-2.5744,150.7967,28.27,78,96,5.45,PG,1685372803
281,chokurdakh,70.6333,147.9167,1.36,88,24,3.95,RU,1685372804
282,longyearbyen,78.2186,15.6401,1.91,69,75,8.75,SJ,1685372804
283,deloraine,-41.5333,146.6667,8.53,84,100,1.07,AU,1685372805
284,nacala,-14.5428,40.6728,25.59,67,0,3.48,MZ,1685372805
285,oistins,13.0667,-59.5333,30.05,66,40,5.14,BB,1685372806
286,caravelas,-17.7125,-39.2481,29.26,51,55,1.36,BR,1685372806
287,labuhan,-6.8844,112.2051,26.04,78,84,4.13,ID,1685372807
288,beitbridge,-22.2167,30.0,26.06,32,23,4.71,ZW,1685372807
289,provideniya,64.3833,-173.3,2.05,98,100,2.74,RU,1685372807
290,bhakkar,31.6253,71.0657,23.63,70,94,5.28,PK,1685372808
291,russell,32.3502,-85.1999,23.56,57,0,4.12,US,1685372620
292,junnar,19.2,73.8833,29.83,40,77,4.51,IN,1685372808
293,asau,46.4333,26.4,22.51,58,38,3.51,RO,1685372809
294,kasangulu,-4.5911,15.1708,29.49,61,83,0.69,CD,1685372809
295,merauke,-8.4667,140.3333,24.74,87,100,4.85,ID,1685372810
296,dingle,10.9995,122.6711,26.48,85,100,4.29,PH,1685372810
297,tiko,4.0745,9.3699,28.43,76,87,2.26,CM,1685372811
298,shellbrook,53.2168,-106.4011,18.26,66,19,3.42,CA,1685372811
299,kautokeino,69.0125,23.0412,8.62,40,100,3.94,NO,1685372811
300,inirida,3.8653,-67.9239,27.19,84,97,0.51,CO,1685372812
301,dauriya,49.9333,116.8667,12.24,30,2,2.85,RU,1685372812
302,ayan,56.45,138.1667,6.38,65,67,4.54,RU,1685372813
303,roebourne,-20.7833,117.1333,20.09,56,100,2.15,AU,1685372813
304,mana,5.6592,-53.7767,26.71,87,91,4.55,GF,1685372813
305,sharkan,57.2989,53.8712,17.94,52,6,5.99,RU,1685372814
306,mount isa,-20.7333,139.5,12.87,38,74,2.57,AU,1685372625
307,helong,42.5397,128.9972,9.43,61,49,1.88,CN,1685372815
308,mongu,-15.2484,23.1274,29.67,17,3,1.38,ZM,1685372815
309,dinan,48.4167,-2.25,19.86,63,9,8.34,FR,1685372815
310,praya,14.9215,-23.5087,29.3,45,0,11.83,CV,1685372815
311,salalah,17.0151,54.0924,30.05,79,20,4.12,OM,1685372816
312,esperance,-33.8667,121.9,17.62,39,100,4.59,AU,1685372816
313,praia,14.9215,-23.5087,29.3,45,0,11.83,CV,1685372816
314,lethem,3.3803,-59.7968,30.53,65,89,1.33,GY,1685372816
315,sobolevo,54.4299,31.8996,17.79,48,2,2.14,RU,1685372816
316,ketchikan,55.3422,-131.6461,8.26,76,100,0.0,US,1685372817
317,primorsk,46.7348,36.3443,18.7,95,100,3.47,UA,1685372817
318,lichuan,30.3,108.85,19.62,97,16,1.38,CN,1685372723
319,pacifica,37.6138,-122.4869,14.82,86,75,4.12,US,1685372817
320,bokoro,12.3807,17.0568,39.37,21,57,3.67,TD,1685372817
321,boda,4.3189,17.4695,28.41,54,65,2.01,CF,1685372823
322,butwal,27.7006,83.4484,29.69,34,14,2.43,NP,1685372823
323,saldanha,-33.0117,17.9442,13.56,83,100,4.77,ZA,1685372825
324,tiksi,71.6872,128.8694,4.49,96,52,7.08,RU,1685372828
325,saint-georges,12.0564,-61.7485,28.35,71,96,5.47,GD,1685372832
326,tutoia,-2.7619,-42.2744,29.64,66,100,4.49,BR,1685372717
327,pinotepa nacional,16.3167,-98.0167,29.53,62,46,0.84,MX,1685372833
328,santa rosa,14.3122,121.1114,30.06,79,100,6.3,PH,1685372833
329,mookane,-23.688,26.6595,24.36,27,48,4.44,BW,1685372834
330,arroyo,41.6096,-4.7969,23.02,51,75,1.54,ES,1685372835
331,narsaq,60.9167,-46.05,8.12,91,82,2.44,GL,1685372836
332,mutis,6.2262,-77.4044,27.96,81,99,1.79,CO,1685372611
333,lorengau,-2.0226,147.2712,26.48,82,80,3.4,PG,1685372837
334,high prairie,55.4334,-116.4858,15.29,62,82,4.54,CA,1685372838
335,pangkalanbuun,-2.6833,111.6167,24.13,90,88,1.26,ID,1685372839
336,fare,-16.7,-151.0167,26.78,79,26,5.37,PF,1685372839
337,tikhvin,59.6451,33.5294,14.01,57,85,2.51,RU,1685372840
338,evensk,61.95,159.2333,9.0,73,88,4.1,RU,1685372841
339,kyra,49.5776,111.9753,11.83,30,89,1.7,RU,1685372842
340,genhe,50.7833,121.5167,5.24,75,45,0.8,CN,1685372731
341,portland,45.5234,-122.6762,13.22,84,75,3.13,US,1685372731
342,amazar,53.858,120.875,6.2,82,41,1.27,RU,1685372844
343,azanka,58.0401,64.7893,25.58,42,46,2.74,RU,1685372844
344,mackay,-21.15,149.2,15.99,55,0,5.04,AU,1685372846
345,tigil,57.8,158.6667,8.19,57,55,2.42,RU,1685372846
346,mukhen,48.1,136.1,4.37,81,72,1.12,RU,1685372847
347,cururupu,-1.8283,-44.8683,30.51,61,89,3.13,BR,1685372847
348,roald,62.5833,6.1333,9.63,100,100,6.17,NO,1685372849
349,tessalit,20.1986,1.0114,39.57,13,64,7.66,ML,1685372850
350,porbandar,21.6422,69.6093,28.86,82,6,6.26,IN,1685372851
351,carauari,-4.8828,-66.8958,32.16,59,28,0.75,BR,1685372851
352,grants pass,42.439,-123.3284,17.14,63,0,0.0,US,1685372773
353,college,64.8569,-147.8028,9.21,95,100,5.66,US,1685372791
354,manaure,11.7751,-72.4445,30.43,65,53,2.96,CO,1685372857
355,starosubkhangulovo,53.1031,57.4423,22.71,52,10,1.65,RU,1685372857
356,los llanos de aridane,28.6585,-17.9182,21.86,69,40,4.02,ES,1685372858
357,nuuk,64.1835,-51.7216,2.34,64,75,5.14,GL,1685372859
358,haradok,55.4624,29.9816,20.06,63,95,2.47,BY,1685372859
359,matagami,49.7502,-77.6328,17.75,29,93,2.77,CA,1685372862
360,tandil,-37.3217,-59.1332,12.05,62,100,4.87,AR,1685372863
361,olafsvik,64.8945,-23.7142,8.55,93,100,12.55,IS,1685372864
362,lachhmangarh,27.8214,75.0251,25.15,57,16,1.7,IN,1685372864
363,churapcha,62.0025,132.4325,9.11,60,63,1.91,RU,1685372865
364,vladesti,45.1167,24.3,20.32,77,61,0.48,RO,1685372866
365,narva-joesuu,59.4589,28.0408,12.07,50,6,3.14,EE,1685372675
366,bambanglipuro,-7.95,110.2833,24.82,82,38,2.63,ID,1685372866
367,bubaque,11.2833,-15.8333,27.37,78,90,2.71,GW,1685372867
368,severo-kurilsk,50.6789,156.125,4.76,97,94,6.49,RU,1685372868
369,zarubino,42.63,131.0922,11.41,77,9,2.06,RU,1685372869
370,leeton,-34.5667,146.4,8.94,85,96,0.98,AU,1685372869
371,golfito,8.639,-83.166,29.34,72,63,0.64,CR,1685372870
372,ust-tsilma,65.441,52.1498,10.37,94,100,3.08,RU,1685372870
373,atambua,-9.1061,124.8925,19.88,88,59,2.55,ID,1685372871
374,pevek,69.7008,170.3133,-1.15,93,100,10.21,RU,1685372695
375,biak,-0.9131,122.8766,24.75,84,7,2.12,ID,1685372871
376,natchitoches,31.7668,-93.1335,27.47,65,0,0.0,US,1685372872
377,vestmannaeyjar,63.4427,-20.2734,9.55,93,100,7.2,IS,1685372604
378,beloha,-25.1667,45.05,22.31,68,0,3.92,MG,1685372873
379,xichang,27.8964,102.2634,23.76,37,0,1.25,CN,1685372873
380,paita,-5.0892,-81.1144,24.71,73,51,5.31,PE,1685372874
381,port huron,42.9709,-82.4249,25.57,44,0,3.6,US,1685372766
382,vardo,70.3705,31.1107,7.99,76,20,3.09,NO,1685372874
383,skibbereen,51.55,-9.2667,16.82,70,100,3.25,IE,1685372456
384,tateyama,34.9833,139.8667,19.96,94,75,0.51,JP,1685372875
385,yazykovo,55.2199,56.1353,20.93,73,44,1.86,RU,1685372875
386,denpasar,-8.65,115.2167,26.81,83,40,6.17,ID,1685372783
387,simbahan,6.3032,120.5836,28.6,79,76,4.59,PH,1685372876
388,batagay,67.6333,134.6333,9.48,81,34,0.68,RU,1685372876
389,jardim,-21.4803,-56.1381,20.87,94,100,1.97,BR,1685372876
390,souillac,-20.5167,57.5167,25.21,73,40,3.6,MU,1685372877
391,nelson bay,-32.7167,152.15,13.33,72,41,4.47,AU,1685372701
392,fort nelson,58.8053,-122.7002,9.97,65,75,4.12,CA,1685372697
393,poum,-20.2333,164.0167,23.06,77,100,6.54,NC,1685372878
394,alekseyevsk,57.8406,108.3492,5.86,94,19,1.17,RU,1685372878
395,buritizeiro,-17.3511,-44.9622,31.76,28,60,1.06,BR,1685372878
396,lonavale,18.75,73.4167,26.48,67,4,2.41,IN,1685372879
397,luderitz,-26.6481,15.1594,14.12,73,1,3.61,NA,1685372879
398,bardiyah,31.7561,25.0865,22.79,59,0,6.64,LY,1685372879
399,maraa,-1.8333,-65.3667,31.29,62,40,1.12,BR,1685372880
400,kishtwar,33.3167,75.7667,14.79,89,100,1.17,IN,1685372755
401,ostrovnoy,68.0531,39.5131,12.01,60,98,7.57,RU,1685372881
402,omsukchan,62.5333,155.8,5.21,95,100,3.45,RU,1685372881
403,saint-augustin,51.226,-58.6502,8.31,46,98,6.29,CA,1685372882
404,padang,-0.9492,100.3543,26.03,85,100,2.02,ID,1685372686
405,aklavik,68.2191,-135.0107,10.45,61,54,4.87,CA,1685372883
406,krasnyy klyuch,55.3863,56.6529,20.14,84,93,1.33,RU,1685372884
407,taltal,-25.4,-70.4833,18.59,72,14,1.54,CL,1685372884
408,archidona,37.0965,-4.3887,23.8,37,33,5.01,ES,1685372885
409,rocha,-34.4833,-54.3333,14.74,48,87,0.5,UY,1685372710
410,diamantino,-14.4086,-56.4461,26.23,67,88,2.07,BR,1685372653
411,dongdu,35.85,117.7,19.82,75,83,0.63,CN,1685372730
412,egvekinot,66.3167,-179.1667,-1.25,84,100,2.6,RU,1685372887
413,iqaluit,63.7506,-68.5145,2.85,70,75,5.14,CA,1685372628
414,trowbridge,51.3189,-2.2086,19.45,58,74,0.89,GB,1685372889
415,kaspiysk,42.8816,47.6392,21.1,73,46,3.13,RU,1685372889
416,valparaiso,-33.0393,-71.6273,16.8,68,0,1.54,CL,1685372661
417,guiyang,26.5833,106.7167,21.87,89,0,2.3,CN,1685372890
418,port-gentil,-0.7193,8.7815,26.44,77,44,7.61,GA,1685372891
419,tucurui,-3.7661,-49.6725,25.97,88,93,1.1,BR,1685372605
420,rawatsar,29.2833,74.3833,26.2,56,100,4.79,IN,1685372891
421,noumea,-22.2763,166.4572,22.78,99,100,2.29,NC,1685372893
422,rio gallegos,-51.6226,-69.2181,6.91,69,19,3.7,AR,1685372894
423,ulfborg,56.2673,8.3217,14.2,70,55,8.95,DK,1685372571
424,pombas,17.1503,-25.0201,25.88,78,53,6.4,CV,1685372895
425,perelyub,51.8667,50.3667,25.48,52,100,6.13,RU,1685372896
426,hohhot,40.8106,111.6522,16.62,83,100,2.23,CN,1685372896
427,ancud,-41.8697,-73.8203,7.15,80,100,2.63,CL,1685372897
428,mongo,12.1844,18.693,36.92,29,67,4.42,TD,1685372897
429,talnakh,69.4865,88.3972,2.26,82,4,2.3,RU,1685372898
430,necochea,-38.5473,-58.7368,10.75,58,100,5.04,AR,1685372898
431,grootfontein,-19.5667,18.1167,27.23,20,7,8.63,NA,1685372899
432,dicabisagan,17.0818,122.4157,27.12,75,100,4.34,PH,1685372752
433,guerrero negro,27.9769,-114.0611,16.83,69,92,5.59,MX,1685372900
434,songea,-10.6833,35.65,19.7,71,100,1.42,TZ,1685372901
435,waipawa,-41.4122,175.5153,14.37,78,84,5.5,NZ,1685372902
436,vanimo,-2.6741,141.3028,25.72,87,94,1.97,PG,1685372902
437,half moon bay,37.4636,-122.4286,14.9,84,100,4.12,US,1685372903
438,suhbaatar,50.2314,106.2078,15.65,36,100,1.97,MN,1685372903
439,marck,50.949,1.9433,17.76,73,99,10.34,FR,1685372903
440,charlestown,-32.95,151.6667,13.01,69,27,0.89,AU,1685372904
441,sinnamary,5.3833,-52.95,25.97,89,100,4.07,GF,1685372905
442,kristiansund,63.1115,7.732,10.36,87,75,7.2,NO,1685372905
443,takayama,36.1333,137.25,16.38,99,100,1.26,JP,1685372906
444,maceio,-9.6658,-35.7353,29.69,65,75,4.12,BR,1685372906
445,hlohovec,48.4317,17.8031,25.12,57,24,4.51,SK,1685372907
446,jacareacanga,-6.2222,-57.7528,33.99,42,18,1.75,BR,1685372908
447,umea,63.8284,20.2597,12.96,38,0,5.66,SE,1685372908
448,antalaha,-14.9003,50.2788,24.93,79,2,5.02,MG,1685372909
449,wentzville,38.8114,-90.8529,25.57,53,100,0.89,US,1685372810
450,turayf,31.6725,38.6637,21.11,70,41,7.57,SA,1685372910
451,henties bay,-22.116,14.2845,16.16,64,2,5.58,NA,1685372911
452,antipovka,49.8299,45.3122,23.3,65,60,7.48,RU,1685372911
453,pimentel,-6.8367,-79.9342,26.16,61,20,7.2,PE,1685372912
454,kajaani,64.2273,27.7285,11.03,46,20,5.66,FI,1685372914
455,hami,42.8,93.45,17.77,39,28,5.16,CN,1685372915
456,doha,25.2867,51.5333,39.17,60,0,6.69,QA,1685372915
457,helena,46.5927,-112.0361,15.69,76,0,1.54,US,1685372231
458,gazanjyk,39.2446,55.5154,35.6,11,88,7.23,TM,1685372916
459,warri,5.5167,5.75,31.65,59,86,0.75,NG,1685372917
460,ullapool,57.8987,-5.1604,14.08,58,20,2.87,GB,1685372917
461,tabou,4.423,-7.3528,28.31,77,68,3.95,CI,1685372919
462,vanderhoof,54.0166,-124.0198,10.5,54,0,2.45,CA,1685372919
463,gorontalo,0.5412,123.0595,24.45,92,3,1.38,ID,1685372920
464,nanakuli,21.3906,-158.1547,23.03,86,0,2.06,US,1685372920
465,loralai,30.3705,68.598,24.41,41,92,6.6,PK,1685372921
466,camacha,33.0833,-16.3333,20.68,64,20,4.63,PT,1685372922
467,ilheus,-14.7889,-39.0494,28.93,56,10,2.86,BR,1685372922
468,igrim,63.1906,64.4162,20.9,63,83,5.18,RU,1685372924
469,tezu,27.9167,96.1667,26.86,57,0,1.93,IN,1685372924
470,craig,40.5153,-107.5464,13.79,54,0,0.0,US,1685372925
471,salinopolis,-0.6136,-47.3561,28.73,76,75,5.41,BR,1685372925
472,mezen,65.8522,44.24,15.87,40,74,5.18,RU,1685372926
473,forio,40.7342,13.8646,23.76,82,75,4.92,IT,1685372926
474,iskateley,67.6803,53.1512,8.37,90,100,2.44,RU,1685372927
475,darbhanga,26.1667,85.9,34.55,28,3,2.92,IN,1685372928
476,awjilah,29.1081,21.2869,31.11,17,0,3.6,LY,1685372928
477,luanda,-8.8368,13.2343,24.4,75,1,7.32,AO,1685372928
478,ellisras,-23.6649,27.7443,24.21,29,52,3.12,ZA,1685372924
479,furmanov,57.2508,41.1058,17.81,57,5,2.59,RU,1685372929
480,boffa,10.1667,-14.0333,33.06,58,71,2.4,GN,1685372929
481,yinchuan,38.4681,106.2731,17.76,61,0,0.98,CN,1685372753
482,shitanjing,39.2342,106.3439,14.83,72,44,1.94,CN,1685372722
483,scottsbluff,41.8666,-103.6672,22.1,54,0,3.09,US,1685372930
484,albufeira,37.0882,-8.2503,20.91,79,86,8.12,PT,1685372669
485,hofn,64.2539,-15.2082,11.01,82,20,9.26,IS,1685372930
486,savannah bight,16.45,-85.85,28.49,75,82,6.12,HN,1685372930
487,kashi,39.4547,75.9797,23.89,16,22,3.51,CN,1685372931
488,kongolo,-5.3833,27.0,32.01,42,61,0.76,CD,1685372931
489,anori,-3.7728,-61.6442,33.07,53,39,1.45,BR,1685372931
490,faya,18.3851,42.4509,16.29,84,99,6.07,SA,1685372931
491,pedra branca,-5.4542,-39.7172,30.12,49,50,2.87,BR,1685372932
492,ewa beach,21.3156,-158.0072,23.02,85,0,2.06,US,1685372932
493,aasiaat,68.7098,-52.8699,-3.84,70,97,3.67,GL,1685372932
494,bathsheba,13.2167,-59.5167,30.34,66,40,5.14,BB,1685372932
495,puri,19.8,85.85,30.29,87,10,5.82,IN,1685372932
496,shache,38.4167,77.2406,24.78,14,90,2.89,CN,1685372933
497,dolores,-36.3132,-57.6792,10.54,66,100,3.57,AR,1685372933
498,kharp,66.8014,65.8081,8.46,80,100,4.67,RU,1685372934
499,thinadhoo,0.5333,72.9333,28.99,72,64,4.99,MV,1685372934
500,awbari,26.5921,12.7805,38.02,9,0,9.84,LY,1685372934
501,guilin,25.2819,110.2864,26.01,81,0,0.42,CN,1685372934
502,bac lieu,9.285,105.7244,28.29,78,100,4.37,VN,1685372935
503,puerto leguizamo,-0.1934,-74.7819,29.24,68,55,0.55,CO,1685372935
504,the valley,18.217,-63.0578,28.94,74,40,5.14,AI,1685372936
505,laguna,38.421,-121.4238,14.6,81,40,4.63,US,1685372746
506,orzhytsya,49.7918,32.7012,20.36,57,34,3.77,UA,1685372937
507,arman,59.7,150.1667,10.01,72,23,4.07,RU,1685372937
508,iquique,-20.2208,-70.1431,20.02,72,1,0.68,CL,1685372303
509,katima mulilo,-17.5,24.2667,30.31,14,5,2.35,NA,1685372938
510,bahia blanca,-38.7196,-62.2724,13.79,54,100,4.92,AR,1685372749
511,rodrigues alves,-7.738,-72.6509,28.19,75,73,0.69,BR,1685372939
512,malmesbury,-33.4608,18.7271,14.87,76,99,0.58,ZA,1685372939
513,pak phanang,8.3511,100.202,27.1,80,99,4.69,TH,1685372939
514,kupang,-10.1667,123.5833,24.32,83,20,4.12,ID,1685372939
515,nanaimo,49.1663,-123.936,15.98,86,100,3.09,CA,1685372651
516,concordia,-31.393,-58.0209,11.55,83,89,3.58,AR,1685372844
517,kindu,-2.95,25.95,29.42,59,100,1.85,CD,1685372940
518,lompoc,34.6391,-120.4579,14.36,79,100,0.45,US,1685372940
519,demidov,55.2706,31.515,18.74,49,42,3.73,RU,1685372941
520,san lorenzo,-25.3333,-57.5333,20.52,68,20,1.03,PY,1685372941
521,namatanai,-3.6667,152.4333,26.79,81,35,3.13,PG,1685372941
522,gallup,35.5281,-108.7426,17.91,24,0,1.54,US,1685372942
523,muroto,33.2833,134.15,22.12,98,100,4.68,JP,1685372943
524,liuli,-11.0833,34.6333,24.9,63,22,2.5,TZ,1685372943
525,canhotinho,-8.8822,-36.1911,28.04,54,22,4.39,BR,1685372944
526,lingao,19.9103,109.6859,26.25,81,0,3.31,CN,1685372944
527,bantry,51.6833,-9.45,16.23,70,91,4.46,IE,1685372945
528,nishihara,26.1842,127.7558,26.6,90,100,7.2,JP,1685372946
529,hualmay,-11.0964,-77.6139,22.62,76,79,3.41,PE,1685372947
530,champerico,14.3,-91.9167,28.18,71,71,2.02,GT,1685372947
531,neyyattinkara,8.4,77.0833,31.92,88,100,1.83,IN,1685372948
532,sorland,67.667,12.6934,6.92,81,48,2.33,NO,1685372949
533,bay roberts,47.5999,-53.2648,9.25,77,97,2.68,CA,1685372754
534,westport,41.1415,-73.3579,25.47,49,56,3.13,US,1685372721
535,chipinge,-20.1883,32.6236,19.36,51,0,2.56,ZW,1685372951
536,canaries,28.0,-15.5,18.98,64,75,2.57,ES,1685372951
537,matay,28.419,30.7792,32.76,18,2,3.4,EG,1685372952
538,quebo,11.3333,-14.9333,36.99,40,70,4.79,GW,1685372952
539,mayo,38.8876,-76.5119,24.64,81,100,3.6,US,1685372953
540,tuy hoa,13.0833,109.3,25.93,89,27,0.96,VN,1685372954
541,coahuayana,18.7333,-103.6833,31.87,50,0,0.95,MX,1685372955
542,road town,18.4167,-64.6167,30.02,66,40,4.63,VG,1685372955
543,shelburne,44.0787,-80.2041,22.64,47,77,3.85,CA,1685372406
544,saint anthony,45.0205,-93.218,25.61,40,0,5.14,US,1685372774
545,jagdalpur,19.0667,82.0333,29.31,45,90,4.47,IN,1685372956
546,pisco,-13.7,-76.2167,22.03,73,100,5.14,PE,1685372727
547,dubbo,-32.25,148.6167,4.07,93,100,1.54,AU,1685372959
548,ternate,0.8,127.4,27.6,77,0,2.48,ID,1685372960
549,nikolayevsk-na-amure,53.1406,140.73,2.44,75,20,1.74,RU,1685372948
550,khani,41.9563,42.9566,22.76,67,75,0.21,GE,1685372961
551,nokaneng,-19.6667,22.2667,30.41,18,95,3.26,BW,1685372961
552,coihaique,-45.5752,-72.0662,6.34,75,75,2.57,CL,1685372962
553,honiara,-9.4333,159.95,25.09,87,46,2.94,SB,1685372705
554,mao,39.8885,4.2658,19.31,77,75,2.06,ES,1685372963
555,udgir,18.3833,77.1167,34.81,23,83,1.42,IN,1685372963
556,king city,36.2127,-121.126,14.38,76,100,1.03,US,1685372964
557,santo tomas,14.1079,121.1414,29.2,86,100,4.76,PH,1685372965
558,diffa,13.3154,12.6113,40.38,7,69,2.49,NE,1685372965
559,cacule,-14.5033,-42.2222,32.16,30,36,1.65,BR,1685372966
560,kiunga,-6.1219,141.2906,22.85,99,100,0.67,PG,1685372967
561,port hardy,50.6996,-127.4199,11.1,82,75,2.57,CA,1685372807
562,artyom,40.4723,50.333,27.08,59,17,4.21,AZ,1685372968
563,mitsamiouli,-11.3847,43.2844,27.01,74,20,2.66,KM,1685372969
564,sakakah,29.9697,40.2064,29.76,80,93,11.58,SA,1685372970
565,miracema do tocantins,-9.5618,-48.3967,32.09,46,10,2.6,BR,1685372970
566,sao joao da barra,-21.6403,-41.0511,23.05,81,81,6.46,BR,1685372971
567,macusani,-14.0833,-70.4333,8.41,57,100,2.43,PE,1685372971
568,prince albert,53.2001,-105.7677,15.97,82,20,5.14,CA,1685372794
569,port blair,11.6667,92.75,28.02,78,75,1.54,IN,1685372729
570,changli,39.7042,119.1506,20.19,45,100,1.87,CN,1685372973
571,carballo,43.213,-8.691,21.7,82,44,3.31,ES,1685372973
572,szentgotthard,46.9526,16.2736,25.52,51,68,4.01,HU,1685372973
573,donnacona,46.6804,-71.7239,15.57,43,90,4.33,CA,1685372974
574,sao gabriel da cachoeira,-0.1303,-67.0892,29.58,73,47,0.44,BR,1685372974
575,meulaboh,4.1363,96.1285,25.67,86,84,1.41,ID,1685372975
576,amli,20.2833,73.0167,29.22,72,0,4.46,IN,1685372976
577,sao paulo de olivenca,-3.3783,-68.8725,31.0,62,69,1.12,BR,1685372977
578,konstantinovsk,47.5828,41.0922,20.77,86,100,5.21,RU,1685372977
579,pringsewu,-5.3582,104.9744,23.67,94,30,1.78,ID,1685372978
580,meadow lake,34.8014,-106.5436,24.42,30,0,2.53,US,1685372979
581,diveyevo,55.0433,43.2418,19.14,56,12,1.1,RU,1685372979
582,port macquarie,-31.4333,152.9167,7.16,70,1,2.55,AU,1685372980
583,hauterive,46.0901,3.4459,26.42,36,15,4.43,FR,1685372980
584,adeje,28.1227,-16.726,22.83,87,40,4.12,ES,1685372981
585,okato,-39.2,173.8833,16.21,99,82,3.58,NZ,1685372942
586,yatou,37.15,122.3833,17.27,84,12,2.88,CN,1685372982
587,zhigalovo,54.8097,105.1578,10.8,50,100,2.73,RU,1685372983
